<?xml version="1.0" standalone="yes"?>
<gpx xmlns="http://www.topografix.com/GPX/1/1" creator="KML2GPX.COM" version="1.1" xmlns:xsi="http://www.w3.org/2001/XMLSchema-instance" xsi:schemaLocation="http://www.topografix.com/GPX/1/1 http://www.topografix.com/GPX/1/1/gpx.xsd">
    <metadata>
        <name><![CDATA[ScotlandBound Points]]></name>
        <desc><![CDATA[Converted from a KML file KML2GPX.COM]]></desc>
                </metadata>

                                                                                
                <wpt lat="55.9471784" lon="-3.3607946">
                                                            <ele>0</ele>
                    <name><![CDATA[Edinburgh Airport]]></name>
                    <cmt><![CDATA[Waypoint no: 1]]></cmt>
                    <desc><![CDATA[This is waypoint no: 1]]></desc>
                </wpt>
                                                                                                                            
                <wpt lat="55.9385663" lon="-3.3603129">
                                                            <ele>0</ele>
                    <name><![CDATA[Arnold Clark Car & Van Rental, Edinburgh Airport]]></name>
                    <cmt><![CDATA[Waypoint no: 2]]></cmt>
                    <desc><![CDATA[This is waypoint no: 2]]></desc>
                </wpt>
                                                                                                                            
                <wpt lat="56.0164375" lon="-3.7529375">
                                                            <ele>0</ele>
                    <name><![CDATA[Helix Car Park]]></name>
                    <cmt><![CDATA[Waypoint no: 3]]></cmt>
                    <desc><![CDATA[This is waypoint no: 3]]></desc>
                </wpt>
                                                                                                                            
                <wpt lat="55.9999219" lon="-3.8386116">
                                                            <ele>0</ele>
                    <name><![CDATA[Falkirk Wheel Car Park]]></name>
                    <cmt><![CDATA[Waypoint no: 4]]></cmt>
                    <desc><![CDATA[This is waypoint no: 4]]></desc>
                </wpt>
                                                                                                                            
                <wpt lat="56.0932083" lon="-3.9344446">
                                                            <ele>0</ele>
                    <name><![CDATA[King Robert Hotel]]></name>
                    <cmt><![CDATA[Waypoint no: 5]]></cmt>
                    <desc><![CDATA[This is waypoint no: 5]]></desc>
                </wpt>
                                                                                                                            
                <wpt lat="56.0925633" lon="-3.9353116">
                                                            <ele>0</ele>
                    <name><![CDATA[The Battle of Bannockburn Visitor Centre (National Trust for Scotland)]]></name>
                    <cmt><![CDATA[Waypoint no: 6]]></cmt>
                    <desc><![CDATA[This is waypoint no: 6]]></desc>
                </wpt>
                                                                                                                            
                <wpt lat="56.1100867" lon="-3.9675534">
                                                            <ele>0</ele>
                    <name><![CDATA[Co-op Food - Cambusbarron - The Brae]]></name>
                    <cmt><![CDATA[Waypoint no: 7]]></cmt>
                    <desc><![CDATA[This is waypoint no: 7]]></desc>
                </wpt>
                                                                                                                            
                <wpt lat="56.005786" lon="-4.5910502">
                                                            <ele>0</ele>
                    <name><![CDATA[SEA LIFE Loch Lomond Aquarium]]></name>
                    <cmt><![CDATA[Waypoint no: 8]]></cmt>
                    <desc><![CDATA[This is waypoint no: 8]]></desc>
                </wpt>
                                                                                                                            
                <wpt lat="56.3499751" lon="-4.696164">
                                                            <ele>0</ele>
                    <name><![CDATA[Falls of Falloch Parking]]></name>
                    <cmt><![CDATA[Waypoint no: 9]]></cmt>
                    <desc><![CDATA[This is waypoint no: 9]]></desc>
                </wpt>
                                                                                                                            
                <wpt lat="56.3500982" lon="-4.6930383">
                                                            <ele>0</ele>
                    <name><![CDATA[Falls Of Falloch]]></name>
                    <cmt><![CDATA[Waypoint no: 10]]></cmt>
                    <desc><![CDATA[This is waypoint no: 10]]></desc>
                </wpt>
                                                                                                                            
                <wpt lat="56.3953171" lon="-5.0541441">
                                                            <ele>0</ele>
                    <name><![CDATA[St Conan’s Kirk]]></name>
                    <cmt><![CDATA[Waypoint no: 11]]></cmt>
                    <desc><![CDATA[This is waypoint no: 11]]></desc>
                </wpt>
                                                                                                                            
                <wpt lat="56.4154179" lon="-5.4691948">
                                                            <ele>0</ele>
                    <name><![CDATA[McCaig’s Tower & Battery Hill]]></name>
                    <cmt><![CDATA[Waypoint no: 12]]></cmt>
                    <desc><![CDATA[This is waypoint no: 12]]></desc>
                </wpt>
                                                                                                                            
                <wpt lat="56.4212062" lon="-5.4816683">
                                                            <ele>0</ele>
                    <name><![CDATA[Corriemar Guest House Oban]]></name>
                    <cmt><![CDATA[Waypoint no: 13]]></cmt>
                    <desc><![CDATA[This is waypoint no: 13]]></desc>
                </wpt>
                                                                                                                            
                <wpt lat="56.414557" lon="-5.474429">
                                                            <ele>0</ele>
                    <name><![CDATA[Piazza]]></name>
                    <cmt><![CDATA[Waypoint no: 14]]></cmt>
                    <desc><![CDATA[This is waypoint no: 14]]></desc>
                </wpt>
                                                                                                                            
                <wpt lat="56.4546794" lon="-5.4374339">
                                                            <ele>0</ele>
                    <name><![CDATA[Dunstaffnage Castle and Chapel]]></name>
                    <cmt><![CDATA[Waypoint no: 15]]></cmt>
                    <desc><![CDATA[This is waypoint no: 15]]></desc>
                </wpt>
                                                                                                                            
                <wpt lat="56.6324409" lon="-4.8278691">
                                                            <ele>0</ele>
                    <name><![CDATA[Glencoe Mountain Resort]]></name>
                    <cmt><![CDATA[Waypoint no: 16]]></cmt>
                    <desc><![CDATA[This is waypoint no: 16]]></desc>
                </wpt>
                                                                                                                            
                <wpt lat="56.662888" lon="-4.964993">
                                                            <ele>0</ele>
                    <name><![CDATA[Glencoe Waterfall Parking]]></name>
                    <cmt><![CDATA[Waypoint no: 17]]></cmt>
                    <desc><![CDATA[This is waypoint no: 17]]></desc>
                </wpt>
                                                                                                                            
                <wpt lat="56.625542" lon="-4.905458">
                                                            <ele>0</ele>
                    <name><![CDATA[Glen Etive Waterfall]]></name>
                    <cmt><![CDATA[Waypoint no: 18]]></cmt>
                    <desc><![CDATA[This is waypoint no: 18]]></desc>
                </wpt>
                                                                                                                            
                <wpt lat="56.6624219" lon="-4.9657305">
                                                            <ele>0</ele>
                    <name><![CDATA[Glencoe waterfall]]></name>
                    <cmt><![CDATA[Waypoint no: 19]]></cmt>
                    <desc><![CDATA[This is waypoint no: 19]]></desc>
                </wpt>
                                                                                                                            
                <wpt lat="56.8171496" lon="-5.1125884">
                                                            <ele>0</ele>
                    <name><![CDATA[High Street]]></name>
                    <cmt><![CDATA[Waypoint no: 20]]></cmt>
                    <desc><![CDATA[This is waypoint no: 20]]></desc>
                </wpt>
                                                                                                                            
                <wpt lat="56.8151896" lon="-5.1107491">
                                                            <ele>0</ele>
                    <name><![CDATA[Rosewood Cottage]]></name>
                    <cmt><![CDATA[Waypoint no: 21]]></cmt>
                    <desc><![CDATA[This is waypoint no: 21]]></desc>
                </wpt>
                                                                                                                            
                <wpt lat="56.8455588" lon="-5.096907">
                                                            <ele>0</ele>
                    <name><![CDATA[Neptune's Staircase Car Park]]></name>
                    <cmt><![CDATA[Waypoint no: 22]]></cmt>
                    <desc><![CDATA[This is waypoint no: 22]]></desc>
                </wpt>
                                                                                                                            
                <wpt lat="56.8450758" lon="-5.0957115">
                                                            <ele>0</ele>
                    <name><![CDATA[Neptune's Staircase]]></name>
                    <cmt><![CDATA[Waypoint no: 23]]></cmt>
                    <desc><![CDATA[This is waypoint no: 23]]></desc>
                </wpt>
                                                                                                                            
                <wpt lat="56.8210726" lon="-5.1063153">
                                                            <ele>0</ele>
                    <name><![CDATA[Jacobite Steam Train Parking]]></name>
                    <cmt><![CDATA[Waypoint no: 24]]></cmt>
                    <desc><![CDATA[This is waypoint no: 24]]></desc>
                </wpt>
                                                                                                                            
                <wpt lat="56.8204282" lon="-5.1059885">
                                                            <ele>0</ele>
                    <name><![CDATA[Jacobite Steam Train]]></name>
                    <cmt><![CDATA[Waypoint no: 25]]></cmt>
                    <desc><![CDATA[This is waypoint no: 25]]></desc>
                </wpt>
                                                                                                                            
                <wpt lat="56.8147682" lon="-5.1182932">
                                                            <ele>0</ele>
                    <name><![CDATA[Cruise Loch Linnhe Parking]]></name>
                    <cmt><![CDATA[Waypoint no: 26]]></cmt>
                    <desc><![CDATA[This is waypoint no: 26]]></desc>
                </wpt>
                                                                                                                            
                <wpt lat="56.816917" lon="-5.114902">
                                                            <ele>0</ele>
                    <name><![CDATA[Cruise Loch Linnhe]]></name>
                    <cmt><![CDATA[Waypoint no: 27]]></cmt>
                    <desc><![CDATA[This is waypoint no: 27]]></desc>
                </wpt>
                                                                                                                            
                <wpt lat="57.0255525" lon="-4.824189">
                                                            <ele>0</ele>
                    <name><![CDATA[Laggan car park]]></name>
                    <cmt><![CDATA[Waypoint no: 28]]></cmt>
                    <desc><![CDATA[This is waypoint no: 28]]></desc>
                </wpt>
                                                                                                                            
                <wpt lat="57.0261607" lon="-4.8251894">
                                                            <ele>0</ele>
                    <name><![CDATA[Laggan Locks]]></name>
                    <cmt><![CDATA[Waypoint no: 29]]></cmt>
                    <desc><![CDATA[This is waypoint no: 29]]></desc>
                </wpt>
                                                                                                                            
                <wpt lat="57.2123136" lon="-5.4139792">
                                                            <ele>0</ele>
                    <name><![CDATA[Chocolates of Glenshiel]]></name>
                    <cmt><![CDATA[Waypoint no: 30]]></cmt>
                    <desc><![CDATA[This is waypoint no: 30]]></desc>
                </wpt>
                                                                                                                            
                <wpt lat="57.2740599" lon="-5.5134164">
                                                            <ele>0</ele>
                    <name><![CDATA[Eilean Donan Castle Parking]]></name>
                    <cmt><![CDATA[Waypoint no: 31]]></cmt>
                    <desc><![CDATA[This is waypoint no: 31]]></desc>
                </wpt>
                                                                                                                            
                <wpt lat="57.2738957" lon="-5.5161585">
                                                            <ele>0</ele>
                    <name><![CDATA[Eilean Donan Castle]]></name>
                    <cmt><![CDATA[Waypoint no: 32]]></cmt>
                    <desc><![CDATA[This is waypoint no: 32]]></desc>
                </wpt>
                                                                                                                            
                <wpt lat="57.2804845" lon="-5.7179462">
                                                            <ele>0</ele>
                    <name><![CDATA[Co-op Food - Kyle of Lochalsh - Bridge Road]]></name>
                    <cmt><![CDATA[Waypoint no: 33]]></cmt>
                    <desc><![CDATA[This is waypoint no: 33]]></desc>
                </wpt>
                                                                                                                            
                <wpt lat="57.4272918" lon="-6.5588397">
                                                            <ele>0</ele>
                    <name><![CDATA[Kilmuir Park]]></name>
                    <cmt><![CDATA[Waypoint no: 34]]></cmt>
                    <desc><![CDATA[This is waypoint no: 34]]></desc>
                </wpt>
                                                                                                                            
                <wpt lat="57.249688" lon="-6.273766">
                                                            <ele>0</ele>
                    <name><![CDATA[Fairy Pools Car Park]]></name>
                    <cmt><![CDATA[Waypoint no: 35]]></cmt>
                    <desc><![CDATA[This is waypoint no: 35]]></desc>
                </wpt>
                                                                                                                            
                <wpt lat="57.2503431" lon="-6.2582954">
                                                            <ele>0</ele>
                    <name><![CDATA[Fairy Pools]]></name>
                    <cmt><![CDATA[Waypoint no: 36]]></cmt>
                    <desc><![CDATA[This is waypoint no: 36]]></desc>
                </wpt>
                                                                                                                            
                <wpt lat="57.4297283" lon="-6.7788405">
                                                            <ele>0</ele>
                    <name><![CDATA[Neist Point Car Park]]></name>
                    <cmt><![CDATA[Waypoint no: 37]]></cmt>
                    <desc><![CDATA[This is waypoint no: 37]]></desc>
                </wpt>
                                                                                                                            
                <wpt lat="57.430911" lon="-6.7832915">
                                                            <ele>0</ele>
                    <name><![CDATA[Neist Point Cliff Lighthouse Viewpoint]]></name>
                    <cmt><![CDATA[Waypoint no: 38]]></cmt>
                    <desc><![CDATA[This is waypoint no: 38]]></desc>
                </wpt>
                                                                                                                            
                <wpt lat="57.4234609" lon="-6.7882621">
                                                            <ele>0</ele>
                    <name><![CDATA[Neist Point Lighthouse]]></name>
                    <cmt><![CDATA[Waypoint no: 39]]></cmt>
                    <desc><![CDATA[This is waypoint no: 39]]></desc>
                </wpt>
                                                                                                                            
                <wpt lat="57.4484436" lon="-6.5900641">
                                                            <ele>0</ele>
                    <name><![CDATA[Dunvegan Castle & Gardens]]></name>
                    <cmt><![CDATA[Waypoint no: 40]]></cmt>
                    <desc><![CDATA[This is waypoint no: 40]]></desc>
                </wpt>
                                                                                                                            
                <wpt lat="57.2728064" lon="-5.7301252">
                                                            <ele>0</ele>
                    <name><![CDATA[Castle Moil Car Park]]></name>
                    <cmt><![CDATA[Waypoint no: 41]]></cmt>
                    <desc><![CDATA[This is waypoint no: 41]]></desc>
                </wpt>
                                                                                                                            
                <wpt lat="57.2726769" lon="-5.7203162">
                                                            <ele>0</ele>
                    <name><![CDATA[Castle Moil]]></name>
                    <cmt><![CDATA[Waypoint no: 42]]></cmt>
                    <desc><![CDATA[This is waypoint no: 42]]></desc>
                </wpt>
                                                                                                                            
                <wpt lat="57.392736" lon="-5.45006">
                                                            <ele>0</ele>
                    <name><![CDATA[Attadale Garden's Parking]]></name>
                    <cmt><![CDATA[Waypoint no: 43]]></cmt>
                    <desc><![CDATA[This is waypoint no: 43]]></desc>
                </wpt>
                                                                                                                            
                <wpt lat="57.3943222" lon="-5.4532454">
                                                            <ele>0</ele>
                    <name><![CDATA[Attadale Estate]]></name>
                    <cmt><![CDATA[Waypoint no: 44]]></cmt>
                    <desc><![CDATA[This is waypoint no: 44]]></desc>
                </wpt>
                                                                                                                            
                <wpt lat="57.4189142" lon="-5.7085562">
                                                            <ele>0</ele>
                    <name><![CDATA[Bealach na Ba Viewpoint]]></name>
                    <cmt><![CDATA[Waypoint no: 45]]></cmt>
                    <desc><![CDATA[This is waypoint no: 45]]></desc>
                </wpt>
                                                                                                                            
                <wpt lat="57.432321" lon="-5.811554">
                                                            <ele>0</ele>
                    <name><![CDATA[Applecross]]></name>
                    <cmt><![CDATA[Waypoint no: 46]]></cmt>
                    <desc><![CDATA[This is waypoint no: 46]]></desc>
                </wpt>
                                                                                                                            
                <wpt lat="57.681127" lon="-5.535201">
                                                            <ele>0</ele>
                    <name><![CDATA[Victoria Falls Parking]]></name>
                    <cmt><![CDATA[Waypoint no: 47]]></cmt>
                    <desc><![CDATA[This is waypoint no: 47]]></desc>
                </wpt>
                                                                                                                            
                <wpt lat="57.6799525" lon="-5.5330485">
                                                            <ele>0</ele>
                    <name><![CDATA[Victoria Falls]]></name>
                    <cmt><![CDATA[Waypoint no: 48]]></cmt>
                    <desc><![CDATA[This is waypoint no: 48]]></desc>
                </wpt>
                                                                                                                            
                <wpt lat="57.7524124" lon="-5.0121081">
                                                            <ele>0</ele>
                    <name><![CDATA[Corrieshalloch Gorge National Nature Reserve (National Trust for Scotland)]]></name>
                    <cmt><![CDATA[Waypoint no: 49]]></cmt>
                    <desc><![CDATA[This is waypoint no: 49]]></desc>
                </wpt>
                                                                                                                            
                <wpt lat="57.8972222" lon="-5.1536111">
                                                            <ele>0</ele>
                    <name><![CDATA[The Royal Hotel]]></name>
                    <cmt><![CDATA[Waypoint no: 50]]></cmt>
                    <desc><![CDATA[This is waypoint no: 50]]></desc>
                </wpt>
                                                                                                                            
                <wpt lat="58.2575417" lon="-5.0267964">
                                                            <ele>0</ele>
                    <name><![CDATA[Kylesku Bridge Car Park North]]></name>
                    <cmt><![CDATA[Waypoint no: 51]]></cmt>
                    <desc><![CDATA[This is waypoint no: 51]]></desc>
                </wpt>
                                                                                                                            
                <wpt lat="58.567963" lon="-4.739881">
                                                            <ele>0</ele>
                    <name><![CDATA[Durness Beach Parking]]></name>
                    <cmt><![CDATA[Waypoint no: 52]]></cmt>
                    <desc><![CDATA[This is waypoint no: 52]]></desc>
                </wpt>
                                                                                                                            
                <wpt lat="58.563452" lon="-4.7211316">
                                                            <ele>0</ele>
                    <name><![CDATA[Smoo Cave Parking]]></name>
                    <cmt><![CDATA[Waypoint no: 53]]></cmt>
                    <desc><![CDATA[This is waypoint no: 53]]></desc>
                </wpt>
                                                                                                                            
                <wpt lat="58.5286855" lon="-4.2073832">
                                                            <ele>0</ele>
                    <name><![CDATA[Clachan Cafe]]></name>
                    <cmt><![CDATA[Waypoint no: 54]]></cmt>
                    <desc><![CDATA[This is waypoint no: 54]]></desc>
                </wpt>
                                                                                                                            
                <wpt lat="58.5903971" lon="-3.5175501">
                                                            <ele>0</ele>
                    <name><![CDATA[Tesco Superstore]]></name>
                    <cmt><![CDATA[Waypoint no: 55]]></cmt>
                    <desc><![CDATA[This is waypoint no: 55]]></desc>
                </wpt>
                                                                                                                            
                <wpt lat="58.443463" lon="-3.083097">
                                                            <ele>0</ele>
                    <name><![CDATA[Whitehouse Park]]></name>
                    <cmt><![CDATA[Waypoint no: 56]]></cmt>
                    <desc><![CDATA[This is waypoint no: 56]]></desc>
                </wpt>
                                                                                                                            
                <wpt lat="58.47573" lon="-3.057349">
                                                            <ele>0</ele>
                    <name><![CDATA[Castle Sinclair Parking]]></name>
                    <cmt><![CDATA[Waypoint no: 57]]></cmt>
                    <desc><![CDATA[This is waypoint no: 57]]></desc>
                </wpt>
                                                                                                                            
                <wpt lat="58.4780076" lon="-3.0680709">
                                                            <ele>0</ele>
                    <name><![CDATA[Castle Sinclair Girnigoe]]></name>
                    <cmt><![CDATA[Waypoint no: 58]]></cmt>
                    <desc><![CDATA[This is waypoint no: 58]]></desc>
                </wpt>
                                                                                                                            
                <wpt lat="58.6440376" lon="-3.0700246">
                                                            <ele>0</ele>
                    <name><![CDATA[John o’ Groats Signpost]]></name>
                    <cmt><![CDATA[Waypoint no: 59]]></cmt>
                    <desc><![CDATA[This is waypoint no: 59]]></desc>
                </wpt>
                                                                                                                            
                <wpt lat="58.6375492" lon="-3.0676627">
                                                            <ele>0</ele>
                    <name><![CDATA[Puffin Croft, petting Farm, Farm Shop & B&B]]></name>
                    <cmt><![CDATA[Waypoint no: 60]]></cmt>
                    <desc><![CDATA[This is waypoint no: 60]]></desc>
                </wpt>
                                                                                                                            
                <wpt lat="58.6712038" lon="-3.3766034">
                                                            <ele>0</ele>
                    <name><![CDATA[Dunnet Head]]></name>
                    <cmt><![CDATA[Waypoint no: 61]]></cmt>
                    <desc><![CDATA[This is waypoint no: 61]]></desc>
                </wpt>
                                                                                                                            
                <wpt lat="58.4349337" lon="-3.0850261">
                                                            <ele>0</ele>
                    <name><![CDATA[Old Pulteney Distillery]]></name>
                    <cmt><![CDATA[Waypoint no: 62]]></cmt>
                    <desc><![CDATA[This is waypoint no: 62]]></desc>
                </wpt>
                                                                                                                            
                <wpt lat="58.3463724" lon="-3.1636177">
                                                            <ele>0</ele>
                    <name><![CDATA[Whaligoe Steps Car Park]]></name>
                    <cmt><![CDATA[Waypoint no: 63]]></cmt>
                    <desc><![CDATA[This is waypoint no: 63]]></desc>
                </wpt>
                                                                                                                            
                <wpt lat="58.3456828" lon="-3.1613755">
                                                            <ele>0</ele>
                    <name><![CDATA[Whaligoe Steps]]></name>
                    <cmt><![CDATA[Waypoint no: 64]]></cmt>
                    <desc><![CDATA[This is waypoint no: 64]]></desc>
                </wpt>
                                                                                                                            
                <wpt lat="57.981842" lon="-3.9454891">
                                                            <ele>0</ele>
                    <name><![CDATA[Dunrobin Castle]]></name>
                    <cmt><![CDATA[Waypoint no: 65]]></cmt>
                    <desc><![CDATA[This is waypoint no: 65]]></desc>
                </wpt>
                                                                                                                            
                <wpt lat="57.7590581" lon="-3.9032444">
                                                            <ele>0</ele>
                    <name><![CDATA[Mermaid of the North Parking]]></name>
                    <cmt><![CDATA[Waypoint no: 66]]></cmt>
                    <desc><![CDATA[This is waypoint no: 66]]></desc>
                </wpt>
                                                                                                                            
                <wpt lat="57.7573998" lon="-3.9059441">
                                                            <ele>0</ele>
                    <name><![CDATA[Mermaid of the North]]></name>
                    <cmt><![CDATA[Waypoint no: 67]]></cmt>
                    <desc><![CDATA[This is waypoint no: 67]]></desc>
                </wpt>
                                                                                                                            
                <wpt lat="57.3241824" lon="-4.4445115">
                                                            <ele>0</ele>
                    <name><![CDATA[Urquhart Castle Parking]]></name>
                    <cmt><![CDATA[Waypoint no: 68]]></cmt>
                    <desc><![CDATA[This is waypoint no: 68]]></desc>
                </wpt>
                                                                                                                            
                <wpt lat="57.3241399" lon="-4.4420013">
                                                            <ele>0</ele>
                    <name><![CDATA[Urquhart Castle]]></name>
                    <cmt><![CDATA[Waypoint no: 69]]></cmt>
                    <desc><![CDATA[This is waypoint no: 69]]></desc>
                </wpt>
                                                                                                                            
                <wpt lat="57.4795609" lon="-4.2369247">
                                                            <ele>0</ele>
                    <name><![CDATA[Haste Ye Back]]></name>
                    <cmt><![CDATA[Waypoint no: 70]]></cmt>
                    <desc><![CDATA[This is waypoint no: 70]]></desc>
                </wpt>
                                                                                                                            
                <wpt lat="57.4787475" lon="-4.2305857">
                                                            <ele>0</ele>
                    <name><![CDATA[River Ness]]></name>
                    <cmt><![CDATA[Waypoint no: 71]]></cmt>
                    <desc><![CDATA[This is waypoint no: 71]]></desc>
                </wpt>
                                                                                                                            
                <wpt lat="57.48087" lon="-4.225515">
                                                            <ele>0</ele>
                    <name><![CDATA[City Sightseeing]]></name>
                    <cmt><![CDATA[Waypoint no: 72]]></cmt>
                    <desc><![CDATA[This is waypoint no: 72]]></desc>
                </wpt>
                                                                                                                            
                <wpt lat="57.4631972" lon="-4.2403298">
                                                            <ele>0</ele>
                    <name><![CDATA[Inverness Botanic Gardens and Café]]></name>
                    <cmt><![CDATA[Waypoint no: 73]]></cmt>
                    <desc><![CDATA[This is waypoint no: 73]]></desc>
                </wpt>
                                                                                                                            
                <wpt lat="57.4709932" lon="-4.169211">
                                                            <ele>0</ele>
                    <name><![CDATA[Castlehill Park]]></name>
                    <cmt><![CDATA[Waypoint no: 74]]></cmt>
                    <desc><![CDATA[This is waypoint no: 74]]></desc>
                </wpt>
                                                                                                                            
                <wpt lat="57.477002" lon="-4.2252588">
                                                            <ele>0</ele>
                    <name><![CDATA[Inverness Museum and Art Gallery]]></name>
                    <cmt><![CDATA[Waypoint no: 75]]></cmt>
                    <desc><![CDATA[This is waypoint no: 75]]></desc>
                </wpt>
                                                                                                                            
                <wpt lat="57.4792027" lon="-4.2246646">
                                                            <ele>0</ele>
                    <name><![CDATA[The Victorian Market]]></name>
                    <cmt><![CDATA[Waypoint no: 76]]></cmt>
                    <desc><![CDATA[This is waypoint no: 76]]></desc>
                </wpt>
                                                                                                                            
                <wpt lat="57.4794255" lon="-4.221907">
                                                            <ele>0</ele>
                    <name><![CDATA[Eastgate Shopping Centre]]></name>
                    <cmt><![CDATA[Waypoint no: 77]]></cmt>
                    <desc><![CDATA[This is waypoint no: 77]]></desc>
                </wpt>
                                                                                                                            
                <wpt lat="57.1097725" lon="-3.9681609">
                                                            <ele>0</ele>
                    <name><![CDATA[Highland Wildlife Park]]></name>
                    <cmt><![CDATA[Waypoint no: 78]]></cmt>
                    <desc><![CDATA[This is waypoint no: 78]]></desc>
                </wpt>
                                                                                                                            
                <wpt lat="56.7003413" lon="-3.7393004">
                                                            <ele>0</ele>
                    <name><![CDATA[Pitlochry Dam Visitor Centre]]></name>
                    <cmt><![CDATA[Waypoint no: 79]]></cmt>
                    <desc><![CDATA[This is waypoint no: 79]]></desc>
                </wpt>
                                                                                                                            
                <wpt lat="55.96675" lon="-3.14258">
                                                            <ele>0</ele>
                    <name><![CDATA[Car Return]]></name>
                    <cmt><![CDATA[Waypoint no: 80]]></cmt>
                    <desc><![CDATA[This is waypoint no: 80]]></desc>
                </wpt>
                                                                                                                            
                <wpt lat="55.9485947" lon="-3.1999135">
                                                            <ele>0</ele>
                    <name><![CDATA[Edinburgh Castle]]></name>
                    <cmt><![CDATA[Waypoint no: 81]]></cmt>
                    <desc><![CDATA[This is waypoint no: 81]]></desc>
                </wpt>
                                                                                                                            
                <wpt lat="55.9489544" lon="-3.1956707">
                                                            <ele>0</ele>
                    <name><![CDATA[Camera Obscura & World of Illusions]]></name>
                    <cmt><![CDATA[Waypoint no: 82]]></cmt>
                    <desc><![CDATA[This is waypoint no: 82]]></desc>
                </wpt>
                                                                                                                            
                <wpt lat="55.9487452" lon="-3.1958982">
                                                            <ele>0</ele>
                    <name><![CDATA[The Scotch Whisky Experience]]></name>
                    <cmt><![CDATA[Waypoint no: 83]]></cmt>
                    <desc><![CDATA[This is waypoint no: 83]]></desc>
                </wpt>
                                                                                                                            
                <wpt lat="55.9501093" lon="-3.188021">
                                                            <ele>0</ele>
                    <name><![CDATA[Royal Mile]]></name>
                    <cmt><![CDATA[Waypoint no: 84]]></cmt>
                    <desc><![CDATA[This is waypoint no: 84]]></desc>
                </wpt>
                                                                                                                            
                <wpt lat="55.9500754" lon="-3.2030618">
                                                            <ele>0</ele>
                    <name><![CDATA[Ross Fountain]]></name>
                    <cmt><![CDATA[Waypoint no: 85]]></cmt>
                    <desc><![CDATA[This is waypoint no: 85]]></desc>
                </wpt>
                                                                                                                            
                <wpt lat="55.9509847" lon="-3.1985488">
                                                            <ele>0</ele>
                    <name><![CDATA[Princes Street Gardens]]></name>
                    <cmt><![CDATA[Waypoint no: 86]]></cmt>
                    <desc><![CDATA[This is waypoint no: 86]]></desc>
                </wpt>
                                                                                                                            
                <wpt lat="55.9550465" lon="-3.1827409">
                                                            <ele>0</ele>
                    <name><![CDATA[Calton Hill]]></name>
                    <cmt><![CDATA[Waypoint no: 87]]></cmt>
                    <desc><![CDATA[This is waypoint no: 87]]></desc>
                </wpt>
                                                                                                                            
                <wpt lat="55.9522999" lon="-3.2136954">
                                                            <ele>0</ele>
                    <name><![CDATA[Deans Village – Riverside Hamlet & Water of Leith Walk]]></name>
                    <cmt><![CDATA[Waypoint no: 88]]></cmt>
                    <desc><![CDATA[This is waypoint no: 88]]></desc>
                </wpt>
                                                                                                                            
                <wpt lat="55.9754642" lon="-3.1665302">
                                                            <ele>0</ele>
                    <name><![CDATA[Leith]]></name>
                    <cmt><![CDATA[Waypoint no: 89]]></cmt>
                    <desc><![CDATA[This is waypoint no: 89]]></desc>
                </wpt>
                                                                                                                            
                <wpt lat="55.9440825" lon="-3.1618324">
                                                            <ele>0</ele>
                    <name><![CDATA[Arthur's Seat]]></name>
                    <cmt><![CDATA[Waypoint no: 90]]></cmt>
                    <desc><![CDATA[This is waypoint no: 90]]></desc>
                </wpt>
                                                            
                    
    
</gpx>